[{"cityLabel":"Ghaziabad","population":"2375820","lat":"28.666666666","lon":"77.416666666"},{"cityLabel":"Cuttack","population":"606007","lat":"20.46497","lon":"85.87927"},{"cityLabel":"Cuttack","population":"606007","lat":"20.45","lon":"85.866666666"},{"cityLabel":"Thane","population":"1886941","lat":"19.18","lon":"72.963333333"},{"cityLabel":"Tiruchirappalli","population":"916857","lat":"10.826944444","lon":"78.692777777"},{"cityLabel":"Shillong","population":"143229","lat":"25.574444444","lon":"91.878888888"},{"cityLabel":"Imphal","population":"264986","lat":"24.82","lon":"93.95"},{"cityLabel":"Imphal","population":"268243","lat":"24.82","lon":"93.95"},{"cityLabel":"Patiala","population":"406192","lat":"30.566666666","lon":"76.633333333"},{"cityLabel":"Kolhapur","lat":"16.7","lon":"74.233333333"},{"cityLabel":"Kanchipuram","population":"164384","lat":"12.830833333","lon":"79.707777777"},{"cityLabel":"Akola","population":"425817","lat":"20.733333333","lon":"77.0"},{"cityLabel":"Bareilly","population":"1000000","lat":"28.364","lon":"79.415"},{"cityLabel":"Tirunelveli","population":"411298","lat":"8.728888888","lon":"77.708055555"},{"cityLabel":"Panaji","population":"40017","lat":"15.48","lon":"73.83"},{"cityLabel":"Nadiad","population":"225132","lat":"22.7","lon":"72.87"},{"cityLabel":"Kanyakumari","population":"19678","lat":"8.091111111","lon":"77.541666666"},{"cityLabel":"Madurai","population":"1561129","lat":"9.919661111","lon":"78.119394444"},{"cityLabel":"Leh","population":"30870","lat":"34.164166666","lon":"77.584722222"},{"cityLabel":"Kohima","population":"99039","lat":"25.666666666","lon":"94.119444444"},{"cityLabel":"Solapur","population":"951558","lat":"17.67152","lon":"75.91044"},{"cityLabel":"Gurgaon","population":"876824","lat":"28.466666666","lon":"77.033333333"},{"cityLabel":"Bhilai","population":"625700","lat":"21.366666666","lon":"81.716666666"},{"cityLabel":"Saharanpur","population":"705478","lat":"29.964","lon":"77.546"},{"cityLabel":"Jaisalmer","population":"65471","lat":"26.916666666","lon":"70.916666666"},{"cityLabel":"Jhansi","population":"507000","lat":"25.44862","lon":"78.56962"},{"cityLabel":"Bhavnagar","lat":"21.765","lon":"72.136944444"},{"cityLabel":"Dhanbad","lat":"23.79278","lon":"86.435"},{"cityLabel":"Sambhal","population":"220813","lat":"28.585197","lon":"78.570932"},{"cityLabel":"Gaya","population":"474093","lat":"24.75","lon":"85.016666666"},{"cityLabel":"Jammu","population":"502197","lat":"32.73569","lon":"74.86911"},{"cityLabel":"Jammu","population":"502197","lat":"32.733333333","lon":"74.85"},{"cityLabel":"Singrauli","lat":"24.11","lon":"82.39"},{"cityLabel":"Moga","lat":"30.816666666","lon":"75.17"},{"cityLabel":"Siddipet","population":"66737","lat":"18.1","lon":"78.85"},{"cityLabel":"Amravati","population":"549370","lat":"20.933333333","lon":"77.75"},{"cityLabel":"Belgaum","population":"488157","lat":"15.856944444","lon":"74.504444444"},{"cityLabel":"Dispur","lat":"26.15","lon":"91.77"},{"cityLabel":"Haridwar","lat":"29.966666666","lon":"78.166666666"},{"cityLabel":"Noida","population":"637272","lat":"28.57","lon":"77.32"},{"cityLabel":"Cuddalore","population":"173676","lat":"11.75","lon":"79.75"},{"cityLabel":"Yavatmal","population":"116551","lat":"20.4","lon":"78.133333333"},{"cityLabel":"Vellore","population":"484690","lat":"12.933333333","lon":"79.133333333"},{"cityLabel":"Valsad","lat":"20.633333333","lon":"72.933333333"},{"cityLabel":"Surendranagar","lat":"22.725","lon":"71.633333333"},{"cityLabel":"Kollam","population":"397419","lat":"8.885277777","lon":"76.586388888"},{"cityLabel":"Sarnath","lat":"25.381111111","lon":"83.021388888"},{"cityLabel":"Kota","population":"1001694","lat":"25.18","lon":"75.83"},{"cityLabel":"Moradabad","population":"887871","lat":"28.838888888","lon":"78.776944444"},{"cityLabel":"Moradabad","population":"887871","lat":"28.843236111","lon":"78.728741666"},{"cityLabel":"Phagwara","lat":"31.13","lon":"75.47"},{"cityLabel":"Raipur","population":"1010087","lat":"21.2379468","lon":"81.6336833"},{"cityLabel":"Jamnagar","population":"479920","lat":"22.47","lon":"70.07"},{"cityLabel":"Mumbai","population":"15414288","lat":"19.075833333","lon":"72.8775"},{"cityLabel":"Nagpur","population":"2405665","lat":"21.149722222","lon":"79.080555555"},{"cityLabel":"Pune","population":"5945000","lat":"18.519574","lon":"73.855287"},{"cityLabel":"Kochi","population":"677381","lat":"9.966666666","lon":"76.283333333"},{"cityLabel":"Farrukhabad","lat":"27.391388888","lon":"79.579166666"},{"cityLabel":"Farrukhabad","lat":"27.37","lon":"79.63"},{"cityLabel":"Surat","population":"5935000","lat":"21.205","lon":"72.84"},{"cityLabel":"Erode","population":"151184","lat":"11.3428","lon":"77.72741"},{"cityLabel":"Erode","population":"151184","lat":"11.340833333","lon":"77.717222222"},{"cityLabel":"Salem","population":"693236","lat":"11.65","lon":"78.166666666"},{"cityLabel":"Coimbatore","population":"959823","lat":"11.000833333","lon":"76.963333333"},{"cityLabel":"Mysore","lat":"12.308611111","lon":"76.653055555"},{"cityLabel":"Rajkot","population":"2043000","lat":"22.296908333","lon":"70.798363888"},{"cityLabel":"Junagadh","population":"320250","lat":"21.52","lon":"70.47"},{"cityLabel":"Gandhinagar","population":"195891","lat":"23.223","lon":"72.65"},{"cityLabel":"Vadodara","population":"2065771","lat":"22.3","lon":"73.2"},{"cityLabel":"Barmer","lat":"25.744444444","lon":"71.397222222"},{"cityLabel":"Barwani","lat":"22.032222222","lon":"74.899722222"},{"cityLabel":"Barwani","lat":"22.03","lon":"74.9"},{"cityLabel":"Beed","population":"146709","lat":"18.9904059","lon":"75.7542291"},{"cityLabel":"Karur","lat":"10.95","lon":"78.083333333"},{"cityLabel":"Dwarka","population":"38873","lat":"22.240277777","lon":"68.968611111"},{"cityLabel":"Tiruppur","lat":"11.1075","lon":"77.3398"},{"cityLabel":"Faizabad","population":"165228","lat":"26.783333333","lon":"82.133333333"},{"cityLabel":"Machilipatnam","population":"169892","lat":"16.166666666","lon":"81.133333333"},{"cityLabel":"Nagercoil","lat":"8.1875","lon":"77.429444444"},{"cityLabel":"Dindigul","population":"207327","lat":"10.36896","lon":"77.98036"},{"cityLabel":"Dindigul","population":"207327","lat":"10.35","lon":"77.95"},{"cityLabel":"Nanded","lat":"19.15","lon":"77.333333333"},{"cityLabel":"Sargodha","population":"659862","lat":"32.083611111","lon":"72.671111111"},{"cityLabel":"Bina-Etawa","lat":"24.18","lon":"78.2"},{"cityLabel":"Biswanath Chariali","lat":"26.727777777","lon":"93.151666666"},{"cityLabel":"Bilaspur","population":"1625502","lat":"22.15","lon":"82.016666666"},{"cityLabel":"Chandrapur","lat":"19.95","lon":"79.3"},{"cityLabel":"Bulandshahr","lat":"28.406944444","lon":"77.849722222"},{"cityLabel":"Bokaro Steel City","lat":"23.67","lon":"86.15"},{"cityLabel":"Bundi","population":"103286","lat":"25.438333333","lon":"75.637222222"},{"cityLabel":"Sambalpur","lat":"21.45","lon":"83.966666666"},{"cityLabel":"Chas","lat":"23.63","lon":"86.17"},{"cityLabel":"Nanded-Waghala","lat":"19.149722222","lon":"77.333055555"},{"cityLabel":"Chengalpattu","lat":"12.69055556","lon":"79.97777778"},{"cityLabel":"Charkhi Dadri","population":"44892","lat":"28.59","lon":"76.27"},{"cityLabel":"Kudanthaiyan","lat":"10.966666666","lon":"79.383333333"},{"cityLabel":"Sitapur","lat":"27.566666666","lon":"80.683333333"},{"cityLabel":"Kishangarh","lat":"26.5741","lon":"74.86685"},{"cityLabel":"Kishangarh","lat":"26.573888888","lon":"74.866666666"},{"cityLabel":"Itarsi","lat":"22.62","lon":"77.75"},{"cityLabel":"Hoshiarpur","lat":"31.532222222","lon":"75.917222222"},{"cityLabel":"Medininagar","lat":"24.033333333","lon":"84.066666666"},{"cityLabel":"Unnao","lat":"26.55","lon":"80.48"},{"cityLabel":"Sirohi","population":"35531","lat":"24.883333333","lon":"72.866666666"},{"cityLabel":"Sawai Madhopur","lat":"26.021111111","lon":"76.353611111"},{"cityLabel":"Palanpur","lat":"24.166666666","lon":"72.433333333"},{"cityLabel":"Mirzapur","population":"2496970","lat":"25.145","lon":"82.565277777"},{"cityLabel":"Durg","population":"268806","lat":"21.19","lon":"81.28"},{"cityLabel":"Durg","population":"268806","lat":"21.19147","lon":"81.27619"},{"cityLabel":"Malappuram","lat":"11.041666666","lon":"76.079444444"},{"cityLabel":"Chhaya","lat":"21.652519444","lon":"69.67465"},{"cityLabel":"Vasco da Gama","lat":"15.3981","lon":"73.8111"},{"cityLabel":"Chikkamagaluru","lat":"13.322222222","lon":"75.773888888"},{"cityLabel":"Chikkamagaluru","lat":"13.316666666","lon":"75.783333333"},{"cityLabel":"Chhoti Sadri","lat":"24.38","lon":"74.7"},{"cityLabel":"Rewa","lat":"24.516666666","lon":"81.283333333"},{"cityLabel":"Palakkad","population":"130955","lat":"10.779166666","lon":"76.654722222"},{"cityLabel":"Mandya","population":"131211","lat":"12.524166666","lon":"76.895833333"},{"cityLabel":"Ghazipur","population":"121020","lat":"25.583333333","lon":"83.566666666"},{"cityLabel":"Mira-Bhayandar","population":"814655","lat":"19.3","lon":"72.85"},{"cityLabel":"Jhunjhunu","lat":"28.125555555","lon":"75.397777777"},{"cityLabel":"Sagar","lat":"23.83","lon":"78.71"},{"cityLabel":"Jagdalpur","lat":"19.07","lon":"82.03"},{"cityLabel":"Rourkela","lat":"22.249166666","lon":"84.882777777"},{"cityLabel":"Roorkee","lat":"29.861388888","lon":"77.888888888"},{"cityLabel":"Akbarpur","population":"42248","lat":"26.52","lon":"82.62"},{"cityLabel":"Bellary","lat":"15.15","lon":"76.933333333"},{"cityLabel":"Sangli","population":"436639","lat":"16.866666666","lon":"74.566666666"},{"cityLabel":"Ambala","lat":"30.378611111","lon":"76.7725"},{"cityLabel":"Hastinapur","lat":"29.283333333","lon":"78.033333333"},{"cityLabel":"Ulhasnagar","population":"506098","lat":"19.216666666","lon":"73.15"},{"cityLabel":"Bidar","population":"172298","lat":"17.9","lon":"77.55"},{"cityLabel":"Solan","population":"39256","lat":"30.92","lon":"77.12"},{"cityLabel":"Daman","lat":"20.416938888","lon":"72.834022222"},{"cityLabel":"Agar","lat":"23.71638889","lon":"76.01638889"},{"cityLabel":"Agar","lat":"23.7","lon":"76.02"},{"cityLabel":"V.S.K.Valasai","lat":"10.531666666","lon":"78.253611111"},{"cityLabel":"Abohar","lat":"30.1334","lon":"74.2001"},{"cityLabel":"Sri Ganganagar","lat":"29.916666666","lon":"73.883333333"},{"cityLabel":"Sri Ganganagar","lat":"29.92","lon":"73.875"},{"cityLabel":"Kalimpong","population":"40143","lat":"27.06","lon":"88.47"},{"cityLabel":"Kalimpong","population":"49403","lat":"27.06","lon":"88.47"},{"cityLabel":"Rishikesh","lat":"30.1","lon":"78.3"},{"cityLabel":"Margao","population":"87650","lat":"15.271944444","lon":"73.958333333"},{"cityLabel":"Veraval","population":"153696","lat":"20.9","lon":"70.37"},{"cityLabel":"Bagalkot","lat":"16.183333333","lon":"75.7"},{"cityLabel":"Azamgarh","lat":"26.06","lon":"83.19"},{"cityLabel":"Bishnupur","population":"67783","lat":"23.073888888","lon":"87.32"},{"cityLabel":"Nandura","lat":"20.833333333","lon":"76.459722222"},{"cityLabel":"Patan","population":"125497","lat":"23.85","lon":"72.116666666"},{"cityLabel":"Malegaon","lat":"20.55","lon":"74.55"},{"cityLabel":"Bachhraon","lat":"28.93","lon":"78.22"},{"cityLabel":"Ichalkaranji","population":"287570","lat":"16.7","lon":"74.47"},{"cityLabel":"Anjangaon","lat":"21.16516","lon":"77.3091"},{"cityLabel":"Ambernath","lat":"19.209","lon":"73.186"},{"cityLabel":"Udupi","population":"165401","lat":"13.33467","lon":"74.74617"},{"cityLabel":"Udupi","population":"165401","lat":"13.332222222","lon":"74.746111111"},{"cityLabel":"Avadi","lat":"13.12","lon":"80.1"},{"cityLabel":"Amroha","lat":"28.9044","lon":"78.4675"},{"cityLabel":"Anupshahr","lat":"28.37","lon":"78.27"},{"cityLabel":"Arrah","lat":"25.563055555","lon":"84.671111111"},{"cityLabel":"Anklav","lat":"22.391269444","lon":"72.99455"},{"cityLabel":"Ashoknagar","lat":"24.34","lon":"77.43"},{"cityLabel":"Amreli","lat":"21.616666666","lon":"71.233333333"},{"cityLabel":"Akhnoor","population":"10770","lat":"32.9","lon":"74.735277777"},{"cityLabel":"Akhnoor","population":"10770","lat":"32.86667","lon":"74.73333"},{"cityLabel":"Auroville","population":"3288","lat":"12.006944444","lon":"79.810555555"},{"cityLabel":"Burhanpur","lat":"21.3","lon":"76.226667"},{"cityLabel":"Kurukshetra","lat":"29.970833333","lon":"76.85"},{"cityLabel":"Panna","lat":"24.72","lon":"80.2"},{"cityLabel":"Balrampur","lat":"27.4295126","lon":"82.1854602"},{"cityLabel":"Sanguem","lat":"15.23","lon":"74.17"},{"cityLabel":"Hodal","lat":"27.9","lon":"77.37"},{"cityLabel":"Dhar","lat":"22.599166666","lon":"75.302777777"},{"cityLabel":"Narmadapuram","lat":"22.75","lon":"77.72"},{"cityLabel":"Bandel","lat":"22.922777777","lon":"88.379444444"},{"cityLabel":"Bahraich","lat":"27.574166666","lon":"81.595833333"},{"cityLabel":"Balotra","lat":"25.83","lon":"72.23"},{"cityLabel":"Pondicherry","lat":"11.93","lon":"79.83"},{"cityLabel":"Bhiwandi","population":"709665","lat":"19.3","lon":"73.066666666"},{"cityLabel":"Ratlam","population":"273892","lat":"23.316666666","lon":"75.066666666"},{"cityLabel":"Kottayam","lat":"9.591666666","lon":"76.522222222"},{"cityLabel":"Rawatsar","lat":"29.28","lon":"74.38"},{"cityLabel":"Bari","lat":"26.63","lon":"77.62"},{"cityLabel":"Batala","population":"183314","lat":"31.8186","lon":"75.2028"},{"cityLabel":"Bathinda","population":"285813","lat":"30.213333333","lon":"74.951944444"},{"cityLabel":"Barnala","lat":"30.37","lon":"75.54"},{"cityLabel":"Baramati","lat":"18.15","lon":"74.58"},{"cityLabel":"Baripada","lat":"21.935","lon":"86.721388888"},{"cityLabel":"Basavakalyan","lat":"17.874444444","lon":"76.949722222"},{"cityLabel":"Basavakalyan","lat":"17.87","lon":"76.95"},{"cityLabel":"Baramulla","population":"167986","lat":"34.208888888","lon":"74.342777777"},{"cityLabel":"Baramulla","population":"167986","lat":"34.2","lon":"74.34"},{"cityLabel":"Ganj Basoda","lat":"23.85","lon":"77.93"},{"cityLabel":"Mancherial","population":"110000","lat":"18.872080555","lon":"79.447211111"},{"cityLabel":"Dungarpur","lat":"23.843055555","lon":"73.714444444"},{"cityLabel":"Punalur","lat":"9.017619444","lon":"76.926519444"},{"cityLabel":"Maihar","population":"40192","lat":"24.27","lon":"80.75"},{"cityLabel":"Pushkar","population":"21626","lat":"26.490277777","lon":"74.554166666"},{"cityLabel":"Beawar","population":"151472","lat":"26.101111111","lon":"74.320277777"},{"cityLabel":"Bhawanipatna","lat":"19.9","lon":"83.166666666"},{"cityLabel":"Bhilwara","lat":"25.35","lon":"74.633333333"},{"cityLabel":"Bharuch","population":"158253","lat":"21.69482","lon":"72.9805"},{"cityLabel":"Bharuch","population":"158253","lat":"21.7","lon":"72.966666666"},{"cityLabel":"Bhagalpur","population":"410210","lat":"25.25","lon":"87.016666666"},{"cityLabel":"Dhule","lat":"20.9","lon":"74.783333333"},{"cityLabel":"Kapurthala","lat":"31.38","lon":"75.381111111"},{"cityLabel":"Kapurthala","lat":"31.38","lon":"75.38"},{"cityLabel":"Bilara","lat":"26.1792","lon":"73.7056"},{"cityLabel":"Bijnor","lat":"29.37","lon":"78.13"},{"cityLabel":"Bhiwani","population":"197662","lat":"28.793055555","lon":"76.139722222"},{"cityLabel":"Bhiwani","population":"197662","lat":"28.783333333","lon":"76.133333333"},{"cityLabel":"Bhuj","lat":"23.25","lon":"69.67"},{"cityLabel":"Budaun","lat":"28.05","lon":"79.12"},{"cityLabel":"Kanpur","population":"243800","lat":"26.4725","lon":"80.331111111"},{"cityLabel":"Kanpur","population":"1300000","lat":"26.4725","lon":"80.331111111"},{"cityLabel":"Kanpur","population":"1600000","lat":"26.4725","lon":"80.331111111"},{"cityLabel":"Kanpur","population":"2356000","lat":"26.4725","lon":"80.331111111"},{"cityLabel":"Kanpur","population":"2701324","lat":"26.4725","lon":"80.331111111"},{"cityLabel":"Kanpur","population":"3067700","lat":"26.4725","lon":"80.331111111"},{"cityLabel":"Varanasi","population":"1198491","lat":"25.318888888","lon":"83.012777777"},{"cityLabel":"Patna","population":"1684222","lat":"25.61","lon":"85.141388888"},{"cityLabel":"Shimla","population":"206575","lat":"31.103333333","lon":"77.172222222"},{"cityLabel":"Rawalpindi","population":"2098231","lat":"33.6007","lon":"73.0679"},{"cityLabel":"Tamralipta"},{"cityLabel":"Panipat","lat":"29.3875","lon":"76.97"},{"cityLabel":"Gwalior","population":"1069276","lat":"26.2125","lon":"78.1775"},{"cityLabel":"Prayagraj","population":"5954391","lat":"25.45","lon":"81.85"},{"cityLabel":"Tiruvannamalai","lat":"12.25","lon":"79.08333333"},{"cityLabel":"Thrissur","population":"315596","lat":"10.52","lon":"76.21"},{"cityLabel":"Thiruvananthapuram","population":"743691","lat":"8.4875","lon":"76.9525"},{"cityLabel":"Bhubaneswar","population":"837737","lat":"20.264444444","lon":"85.828055555"},{"cityLabel":"Katni","lat":"23.48","lon":"80.12"},{"cityLabel":"Khajuraho","population":"24481","lat":"24.85","lon":"79.933333333"},{"cityLabel":"Fatehpur Sikri","population":"32905","lat":"27.091111111","lon":"77.661111111"},{"cityLabel":"Ayodhya","population":"55890","lat":"26.799166666","lon":"82.204444444"},{"cityLabel":"Gangtok","population":"100286","lat":"27.33","lon":"88.62"},{"cityLabel":"Dharamshala","population":"19034","lat":"32.215277777","lon":"76.318611111"},{"cityLabel":"Aizawl","population":"293416","lat":"23.733333333","lon":"92.716666666"},{"cityLabel":"Jodhpur","population":"1033918","lat":"26.294444444","lon":"73.027777777"},{"cityLabel":"Ajmer","population":"542321","lat":"26.468","lon":"74.639"},{"cityLabel":"Ujjain","population":"515215","lat":"23.182777777","lon":"75.777222222"},{"cityLabel":"Ludhiana","population":"1618879","lat":"30.908333333","lon":"75.848611111"},{"cityLabel":"Meerut","population":"1305429","lat":"28.99","lon":"77.7"},{"cityLabel":"Meerut","population":"1305429","lat":"28.98","lon":"77.706388888"},{"cityLabel":"Aurangabad","population":"1175116","lat":"19.88","lon":"75.32"},{"cityLabel":"Bikaner","population":"529007","lat":"28.018055555","lon":"73.316944444"},{"cityLabel":"Jabalpur","population":"1267564","lat":"23.166666666","lon":"79.933333333"},{"cityLabel":"Orchha","population":"11511","lat":"25.35","lon":"78.64"},{"cityLabel":"Aligarh","population":"1131160","lat":"27.88","lon":"78.08"},{"cityLabel":"Sri Vijaya Puram (Port Blair)","population":"100608","lat":"11.666666666","lon":"92.75"},{"cityLabel":"Kozhikode","population":"431560","lat":"11.247777777","lon":"75.780277777"},{"cityLabel":"Jalna","lat":"19.833333333","lon":"75.883333333"},{"cityLabel":"Jalgaon","population":"460468","lat":"21.016666666","lon":"75.566666666"},{"cityLabel":"Sikar","lat":"27.611944444","lon":"75.139722222"},{"cityLabel":"Jalandhar","population":"873725","lat":"31.325555555","lon":"75.579166666"},{"cityLabel":"Hosapete","lat":"15.2667","lon":"76.4"},{"cityLabel":"Hubballi","lat":"15.355","lon":"75.136175"},{"cityLabel":"Munger","lat":"25.381","lon":"86.465"},{"cityLabel":"Itanagar","population":"59490","lat":"27.1","lon":"93.62"},{"cityLabel":"Nizamabad","population":"311152","lat":"18.671997222","lon":"78.094"},{"cityLabel":"Thanjavur","population":"222943","lat":"10.787","lon":"79.137806"},{"cityLabel":"Gandhidham","lat":"23.068055555","lon":"70.128333333"},{"cityLabel":"Thoothukudi","lat":"8.783333333","lon":"78.133333333"},{"cityLabel":"Agra","population":"1585705","lat":"27.18","lon":"78.02"},{"cityLabel":"Chandigarh","population":"1055450","lat":"30.736388888","lon":"76.788333333"},{"cityLabel":"Chandigarh","population":"1055450","lat":"30.735277777","lon":"76.791111111"},{"cityLabel":"Hassan","population":"133436","lat":"13.005","lon":"76.102777777"},{"cityLabel":"Amritsar","population":"1132383","lat":"31.626917","lon":"74.87704"},{"cityLabel":"Colonia del Sacramento","population":"26231","lat":"-34.471388888","lon":"-57.844166666"},{"cityLabel":"Satna","population":"283004","lat":"24.598351185","lon":"80.828125281"},{"cityLabel":"Latur","lat":"18.4","lon":"76.583333333"},{"cityLabel":"Nellore","population":"547621","lat":"14.433333333","lon":"79.966666666"},{"cityLabel":"Navi Mumbai","population":"1119477","lat":"19.03","lon":"73.01"},{"cityLabel":"Nabha","lat":"30.37","lon":"76.15"},{"cityLabel":"Karaikudi","population":"106714","lat":"10.06666667","lon":"78.78333333"},{"cityLabel":"Hazaribagh","lat":"23.98","lon":"85.35"},{"cityLabel":"Lalitpur","lat":"24.690277777","lon":"78.418888888"},{"cityLabel":"Sivaganga","population":"40129","lat":"9.866666666","lon":"78.483333333"},{"cityLabel":"Sivaganga","population":"40129","lat":"9.85","lon":"78.5"},{"cityLabel":"Jalore","population":"54081","lat":"25.35","lon":"72.616666666"},{"cityLabel":"Jaunpur","population":"180362","lat":"25.753611111","lon":"82.686944444"},{"cityLabel":"Khuldabad","lat":"20.00952222","lon":"75.18879722"},{"cityLabel":"Kashipur","lat":"29.213611111","lon":"78.955833333"},{"cityLabel":"Qadian","population":"21899","lat":"31.819166666","lon":"75.376388888"},{"cityLabel":"Chhatarpur","lat":"24.9177","lon":"79.58871"},{"cityLabel":"Puttur","lat":"12.77","lon":"75.22"},{"cityLabel":"Khanna","lat":"30.7","lon":"76.22"},{"cityLabel":"Chikodi","lat":"16.43","lon":"74.6"},{"cityLabel":"Chiplun","lat":"17.53","lon":"73.52"},{"cityLabel":"Darbhanga","lat":"26.156999","lon":"85.8995065"},{"cityLabel":"Datia","lat":"25.67","lon":"78.47"},{"cityLabel":"Datia","lat":"25.673055555","lon":"78.459166666"},{"cityLabel":"Dakor","lat":"22.752777777","lon":"73.151111111"},{"cityLabel":"Deoghar","population":"203116","lat":"24.48","lon":"86.7"},{"cityLabel":"Chopda","lat":"21.25","lon":"75.3"},{"cityLabel":"Chunar","lat":"25.13","lon":"82.9"},{"cityLabel":"Doraha","lat":"30.816666666","lon":"76.016666666"},{"cityLabel":"Chümoukedima","population":"43516","lat":"25.7916","lon":"93.7818"},{"cityLabel":"Pilibhit","lat":"28.633333333","lon":"79.766666666"},{"cityLabel":"Dibiyapur","lat":"26.635833333","lon":"79.556666666"},{"cityLabel":"Dholka","population":"53792","lat":"22.72","lon":"72.47"},{"cityLabel":"Doddaballapura","lat":"13.292","lon":"77.543"},{"cityLabel":"Dholpur","lat":"26.7","lon":"77.9"},{"cityLabel":"Dewas","lat":"22.966666666","lon":"76.066666666"},{"cityLabel":"Dibrugarh","population":"154019","lat":"27.483333333","lon":"94.9"},{"cityLabel":"Sivasagar","lat":"26.98","lon":"94.63"},{"cityLabel":"Jaora","lat":"23.63","lon":"75.13"},{"cityLabel":"Dumka","lat":"24.27","lon":"87.25"},{"cityLabel":"Kulpahar","lat":"25.319","lon":"79.641"},{"cityLabel":"Rohtak","population":"374292","lat":"28.9","lon":"76.566666666"},{"cityLabel":"Muzaffarpur","population":"333200","lat":"26.12","lon":"85.383333333"},{"cityLabel":"Malerkotla","lat":"30.5167","lon":"75.8833"},{"cityLabel":"Rampur","lat":"28.81014","lon":"79.02699"},{"cityLabel":"Rampur","lat":"28.788","lon":"79.019"},{"cityLabel":"Etah","population":"145601","lat":"27.63","lon":"78.67"},{"cityLabel":"Gondal","lat":"21.97","lon":"70.8"},{"cityLabel":"Vidisha","population":"155959","lat":"23.5239","lon":"77.8061"},{"cityLabel":"Khandwa","lat":"21.83","lon":"76.33"},{"cityLabel":"Gohad","lat":"26.43","lon":"78.44"},{"cityLabel":"Gurdaspur","lat":"32.0333","lon":"75.4"},{"cityLabel":"Haldwani","lat":"29.2144604","lon":"79.527918"},{"cityLabel":"Hanumangarh","population":"129654","lat":"29.583333333","lon":"74.316666666"},{"cityLabel":"Gondia","population":"132821","lat":"21.45","lon":"80.2"},{"cityLabel":"Gumla","population":"80129","lat":"23.044444444","lon":"84.541666666"},{"cityLabel":"Hardoi","lat":"27.3947","lon":"80.1283"},{"cityLabel":"Gokak","lat":"16.1667","lon":"74.8333"},{"cityLabel":"Gokak","lat":"16.16901","lon":"74.82393"},{"cityLabel":"Golaghat","lat":"26.508961","lon":"93.969543"},{"cityLabel":"Golaghat","lat":"26.5239","lon":"93.9623"},{"cityLabel":"Hindaun","lat":"26.72","lon":"77.02"},{"cityLabel":"Hathras","lat":"27.36","lon":"78.03"},{"cityLabel":"Khambhat","population":"98700","lat":"22.313114","lon":"72.619408"},{"cityLabel":"Wani","lat":"20.07","lon":"78.95"},{"cityLabel":"Maghar","lat":"26.76","lon":"83.13"},{"cityLabel":"Ramnagar","lat":"25.270833333","lon":"83.028888888"},{"cityLabel":"Ramnagar","lat":"25.269166666","lon":"83.029722222"},{"cityLabel":"Jejuri","lat":"18.272327777","lon":"74.1604"},{"cityLabel":"Purnia","population":"310817","lat":"25.78","lon":"87.47"},{"cityLabel":"Wardha","lat":"20.75","lon":"78.616666666"},{"cityLabel":"Hisar","population":"307024","lat":"29.148888888","lon":"75.736666666"},{"cityLabel":"Motihari","lat":"26.65","lon":"84.916666666"},{"cityLabel":"Faridkot","population":"87695","lat":"30.67","lon":"74.76"},{"cityLabel":"Morena","lat":"26.5","lon":"78.0"},{"cityLabel":"Anand","population":"130462","lat":"22.556","lon":"72.951"},{"cityLabel":"Yamunanagar","lat":"30.128888888","lon":"77.280277777"},{"cityLabel":"Jind","lat":"29.316111111","lon":"76.314166666"},{"cityLabel":"Mahoba","lat":"25.28","lon":"79.872885"},{"cityLabel":"Mormugao","population":"94393","lat":"15.402","lon":"73.8"},{"cityLabel":"Raigarh","lat":"21.9","lon":"83.4"},{"cityLabel":"Ratnagiri","lat":"16.983333333","lon":"73.3"},{"cityLabel":"Mandsaur","population":"141667","lat":"24.03","lon":"75.08"},{"cityLabel":"Samastipur","lat":"25.85","lon":"85.766666666"},{"cityLabel":"Dhenkanal","lat":"20.666666666","lon":"85.6"},{"cityLabel":"Pilani","lat":"28.37","lon":"75.6"},{"cityLabel":"Udhampur","population":"35507","lat":"32.93","lon":"75.13"},{"cityLabel":"Mohali","population":"146213","lat":"30.719444444","lon":"76.718055555"},{"cityLabel":"Khargone","lat":"21.82833333","lon":"75.61916667"},{"cityLabel":"Khargone","lat":"21.49","lon":"75.36"},{"cityLabel":"Rewari","lat":"28.183333333","lon":"76.616666666"},{"cityLabel":"Kaithal","lat":"29.801666666","lon":"76.396666666"},{"cityLabel":"Hajipur","lat":"25.68","lon":"85.22"},{"cityLabel":"Sasaram","lat":"24.95","lon":"84.03"},{"cityLabel":"Saharsa","population":"156540","lat":"25.88","lon":"86.6"},{"cityLabel":"Wankaner","lat":"22.616111111","lon":"70.953055555"},{"cityLabel":"Korba","lat":"22.583333333","lon":"83.133333333"},{"cityLabel":"Jagadhri","lat":"30.166666666","lon":"77.303055555"},{"cityLabel":"Shivpuri","lat":"25.433333333","lon":"77.65"},{"cityLabel":"Guna","lat":"24.65","lon":"77.316666666"},{"cityLabel":"Nandurbar","lat":"21.366666666","lon":"74.25"},{"cityLabel":"Nandurbar","lat":"21.366666666","lon":"74.240555555"},{"cityLabel":"Morbi","lat":"22.816666666","lon":"70.833333333"},{"cityLabel":"Kotdwar","lat":"29.745277777","lon":"78.52"},{"cityLabel":"Kargil","lat":"34.5594","lon":"76.1256"},{"cityLabel":"Ambikapur","lat":"23.12","lon":"83.2"},{"cityLabel":"Khandela","lat":"27.60499","lon":"75.502"},{"cityLabel":"Govindgarh","lat":"24.38","lon":"81.3"},{"cityLabel":"Tambaram","lat":"12.93","lon":"80.11"},{"cityLabel":"Nawalgarh","population":"63948","lat":"27.85","lon":"75.27"},{"cityLabel":"Siwan","lat":"26.22","lon":"84.36"},{"cityLabel":"Kottakuppam","lat":"11.991388888","lon":"79.841388888"},{"cityLabel":"Khordha","lat":"20.183333333","lon":"85.616666666"},{"cityLabel":"Udaipur","lat":"23.53","lon":"91.48"},{"cityLabel":"New Tehri","lat":"30.383333333","lon":"78.483333333"},{"cityLabel":"Kalpi","lat":"26.116666666","lon":"79.733333333"},{"cityLabel":"Karjat","lat":"18.9234","lon":"73.3251"},{"cityLabel":"Dr. Ambedkar Nagar","lat":"22.55","lon":"75.76"},{"cityLabel":"Mainpuri","lat":"27.23","lon":"79.02"},{"cityLabel":"Washim","population":"62863","lat":"20.1","lon":"77.15"},{"cityLabel":"Mahidpur","lat":"23.487222222","lon":"75.657222222"},{"cityLabel":"Tura","lat":"25.52","lon":"90.22"},{"cityLabel":"Bhilai Charoda","lat":"21.219788888","lon":"81.457511111"},{"cityLabel":"Jawhar","lat":"19.92","lon":"73.23"},{"cityLabel":"Karanja Lad","lat":"20.4833","lon":"77.4833"},{"cityLabel":"Rudrapur","population":"154485","lat":"28.970833333","lon":"79.397222222"},{"cityLabel":"Jahanpanah","lat":"28.521","lon":"77.246"},{"cityLabel":"Padrauna","lat":"26.904166666","lon":"83.980833333"},{"cityLabel":"Rupnagar","population":"61314","lat":"30.966388888","lon":"76.533055555"},{"cityLabel":"Narnaul","population":"252786","lat":"28.044444444","lon":"76.108333333"},{"cityLabel":"Malout","population":"70958","lat":"30.211111111","lon":"74.481666666"},{"cityLabel":"Malout","population":"70958","lat":"30.19","lon":"74.499"},{"cityLabel":"Nurpur","lat":"32.3","lon":"75.9"},{"cityLabel":"Gonda","lat":"27.133333333","lon":"81.933333333"},{"cityLabel":"Sangrur","lat":"30.233333333","lon":"75.833333333"},{"cityLabel":"Kakrala","lat":"27.89222","lon":"79.19528"},{"cityLabel":"Kagal","lat":"16.58","lon":"74.32"},{"cityLabel":"Junnar","population":"40000","lat":"19.2","lon":"73.88"},{"cityLabel":"Karad","lat":"17.28","lon":"74.2"},{"cityLabel":"Kairana","population":"89000","lat":"29.395277777","lon":"77.205277777"},{"cityLabel":"Kairana","population":"89000","lat":"29.4","lon":"77.2"},{"cityLabel":"Shamli","lat":"29.45","lon":"77.32"},{"cityLabel":"Nabinagar","lat":"24.62","lon":"84.12"},{"cityLabel":"Dharashiv","population":"112085","lat":"18.166666666","lon":"76.05"},{"cityLabel":"Sanawad","lat":"22.18","lon":"76.07"},{"cityLabel":"Rajgarh","lat":"24.008333333","lon":"76.7325"},{"cityLabel":"Namchi","population":"12190","lat":"27.17","lon":"88.35"},{"cityLabel":"Umaria","population":"33114","lat":"23.524722222","lon":"80.837222222"},{"cityLabel":"Umaria","population":"33114","lat":"23.5245108","lon":"80.8364652"},{"cityLabel":"Shahdol","population":"86681","lat":"23.28","lon":"81.35"},{"cityLabel":"Virar","lat":"19.47","lon":"72.8"},{"cityLabel":"Virar","lat":"19.45591","lon":"72.81136"},{"cityLabel":"Marehra","population":"19542","lat":"27.736666666","lon":"78.568888888"},{"cityLabel":"Najibabad","lat":"29.63","lon":"78.33"},{"cityLabel":"Merta City","lat":"26.65","lon":"74.0333"},{"cityLabel":"Saswad","lat":"18.55","lon":"74.0"},{"cityLabel":"Sangole","lat":"17.439444444","lon":"75.193888888"},{"cityLabel":"Sultanpur Lodhi","lat":"31.213177777","lon":"75.198497222"},{"cityLabel":"Srinagar","lat":"30.223055555","lon":"78.79"},{"cityLabel":"Rawatbhata","lat":"24.931944444","lon":"75.588888888"},{"cityLabel":"Kalol","lat":"23.2257","lon":"72.516788888"},{"cityLabel":"Mowa","lat":"21.275101","lon":"81.667648"},{"cityLabel":"Shrivardhan","lat":"18.045833333","lon":"73.015555555"},{"cityLabel":"Shrivardhan","lat":"18.0333","lon":"73.0167"},{"cityLabel":"Tuni","population":"254425","lat":"17.35","lon":"82.55"},{"cityLabel":"Jamtara","lat":"23.95","lon":"86.8"},{"cityLabel":"Sirhind-Fategarh","lat":"30.366666666","lon":"76.233333333"},{"cityLabel":"Greater Noida","population":"107676","lat":"28.496152777","lon":"77.536011111"},{"cityLabel":"Ujhani","lat":"28.35","lon":"79.02"},{"cityLabel":"Shikohabad","lat":"27.1","lon":"78.6"},{"cityLabel":"Tijara","lat":"27.93","lon":"76.85"},{"cityLabel":"Trimbak","lat":"19.932777777","lon":"73.529166666"},{"cityLabel":"Sujanpur","lat":"32.312744444","lon":"75.601172222"},{"cityLabel":"Panhala","lat":"16.82","lon":"74.12"},{"cityLabel":"Sitarganj","lat":"28.93","lon":"79.7"},{"cityLabel":"Fatehpur","lat":"27.997222222","lon":"74.961111111"},{"cityLabel":"Shujalpur","lat":"23.4","lon":"76.72"},{"cityLabel":"Sinnar","lat":"19.85","lon":"74.0"},{"cityLabel":"Jamalpur","lat":"25.3","lon":"86.5"},{"cityLabel":"Balel Pipariya","lat":"21.7588","lon":"71.1286"},{"cityLabel":"Muzaffarnagar","population":"10793","lat":"29.470833333","lon":"77.703333333"},{"cityLabel":"Muzaffarnagar","population":"15080","lat":"29.470833333","lon":"77.703333333"},{"cityLabel":"Muzaffarnagar","population":"18166","lat":"29.470833333","lon":"77.703333333"},{"cityLabel":"Muzaffarnagar","population":"23444","lat":"29.470833333","lon":"77.703333333"},{"cityLabel":"Muzaffarnagar","population":"392768","lat":"29.470833333","lon":"77.703333333"},{"cityLabel":"Savda","lat":"21.15","lon":"75.88"},{"cityLabel":"Hanamakonda","lat":"18.0072514","lon":"79.5514756"},{"cityLabel":"Valluvanad"},{"cityLabel":"Vizianagaram","population":"228720","lat":"18.116666666","lon":"83.416666666"},{"cityLabel":"Janjgir","lat":"22.017","lon":"82.567"},{"cityLabel":"Vijayapura","population":"327427","lat":"16.82442","lon":"75.71537"},{"cityLabel":"Barabanki","lat":"26.92","lon":"81.2"},{"cityLabel":"Parli","lat":"18.850555555","lon":"76.531666666"},{"cityLabel":"Parli","lat":"18.85","lon":"76.5333"},{"cityLabel":"Dirang","lat":"27.361944444","lon":"92.24"},{"cityLabel":"Araria","lat":"26.1346459","lon":"87.4654062"},{"cityLabel":"Amargarh"},{"cityLabel":"Kannur","lat":"11.868888888","lon":"75.355555555"},{"cityLabel":"Bollineni Hillside","lat":"12.88034","lon":"80.20238"},{"cityLabel":"Canacona","population":"12434","lat":"15.010928","lon":"74.0363036"},{"cityLabel":"Karepalli","lat":"17.510127777","lon":"80.272036111"},{"cityLabel":"Fatehgunj","lat":"22.3207","lon":"73.1882"},{"cityLabel":"Godavarikhani","population":"252693","lat":"18.751891666","lon":"79.513311111"},{"cityLabel":"Gogolá","lat":"20.723333333","lon":"70.9875"},{"cityLabel":"Gorakhpur","population":"673446","lat":"26.761111111","lon":"83.366666666"},{"cityLabel":"Meerpet–Jillelguda","lat":"17.1958","lon":"78.3131"},{"cityLabel":"Karala","lat":"28.738","lon":"77.0392"},{"cityLabel":"Porbandar","lat":"21.6425","lon":"69.604722222"},{"cityLabel":"Kurumbakkavu Bhagavathy Temple Edathala","lat":"10.06722222","lon":"76.365"},{"cityLabel":"Pali","population":"229956","lat":"25.7725","lon":"73.323333333"},{"cityLabel":"Malavli","lat":"18.74472222","lon":"73.48166667"},{"cityLabel":"Atal Nagar-Nava Raipur","lat":"21.161","lon":"81.787"},{"cityLabel":"Minicoy","lat":"8.2892876","lon":"73.0618573"},{"cityLabel":"Pragjyotishpura"},{"cityLabel":"Sriniwaspuri","lat":"28.5667","lon":"77.25"},{"cityLabel":"Titwala","lat":"19.299","lon":"73.223"},{"cityLabel":"Vasind","lat":"19.4167","lon":"73.2667"},{"cityLabel":"Vishnu Baug Colony"},{"cityLabel":"Wategaon","lat":"17.1022","lon":"74.1611"},{"cityLabel":"Amber","lat":"26.983333333","lon":"75.866666666"},{"cityLabel":"Āmer"},{"cityLabel":"Nurmahal","lat":"31.0964","lon":"75.5967"},{"cityLabel":"Chittoor","population":"160722","lat":"13.2","lon":"79.116666666"},{"cityLabel":"Dumaria","lat":"24.452521","lon":"84.584727"},{"cityLabel":"Nagaon","population":"147137","lat":"26.349166666","lon":"92.686111111"},{"cityLabel":"Gola Gokarannath","lat":"28.08","lon":"80.47"},{"cityLabel":"Cochin"},{"cityLabel":"Q12701702"},{"cityLabel":"Moparru","population":"3324","lat":"16.10585","lon":"80.62089"},{"cityLabel":"Sarsa"},{"cityLabel":"Coorg"},{"cityLabel":"Bhondsi","lat":"28.3497","lon":"77.0626"},{"cityLabel":"Q14219428","lat":"27.205","lon":"75.80556"},{"cityLabel":"Sarkidhar","lat":"31.1425","lon":"76.81806"},{"cityLabel":"Jale","lat":"26.38","lon":"85.72"},{"cityLabel":"Nerkattumseval","lat":"9.24","lon":"77.53"},{"cityLabel":"Sidlaphadi","lat":"15.94361111","lon":"75.70138889"},{"cityLabel":"Vadamalapuram","lat":"9.4944399","lon":"77.8450871"},{"cityLabel":"Yalavagi","lat":"15.0631","lon":"75.4667"},{"cityLabel":"Gogawan","lat":"21.91","lon":"75.7"},{"cityLabel":"Hisar Urban Agglomeration","lat":"29.15","lon":"75.7"},{"cityLabel":"Nangal Choudhary","lat":"27.8923","lon":"76.1122"},{"cityLabel":"Adakal"},{"cityLabel":"Maktalam"},{"cityLabel":"Rikhawdar","lat":"23.3652465","lon":"93.3855078"},{"cityLabel":"Q20452780","lat":"27.196388888","lon":"77.933611111"},{"cityLabel":"Q20452993","lat":"27.174722222","lon":"77.953055555"},{"cityLabel":"Q20463473","lat":"27.124722222","lon":"78.025277777"},{"cityLabel":"Q20463478"},{"cityLabel":"Q21075306","lat":"18.005676","lon":"79.556041"},{"cityLabel":"Setganga","lat":"22.28","lon":"81.73"},{"cityLabel":"Ayodhya Cantt","lat":"26.796444","lon":"82.133665"},{"cityLabel":"Fatehganj"},{"cityLabel":"Tarun Bazaar"},{"cityLabel":"Hastinganj"},{"cityLabel":"The Gateway of Gulmarg","lat":"34.08","lon":"74.58"},{"cityLabel":"Nissing","lat":"29.69","lon":"76.75"},{"cityLabel":"Devsar","lat":"33.65","lon":"75.02"},{"cityLabel":"Lingshet","population":"913","lat":"33.9036","lon":"76.82441"},{"cityLabel":"Pahadi","lat":"27.710362","lon":"77.081783"},{"cityLabel":"Rithi, Katni","lat":"23.9","lon":"80.133"},{"cityLabel":"Dadegaon","lat":"18.967","lon":"75.08"},{"cityLabel":"Upalavi","lat":"16.982838","lon":"74.675703"},{"cityLabel":"Mullana","lat":"30.1502","lon":"77.0242"},{"cityLabel":"Shankerpura","lat":"31.8116","lon":"75.1374"},{"cityLabel":"Sohawal","lat":"26.75","lon":"81.98611111"},{"cityLabel":"Pangin","lat":"28.210220336","lon":"94.988731384"},{"cityLabel":"Dediapada","lat":"21.63333333","lon":"73.58333333"},{"cityLabel":"Durgawati","lat":"25.211388888","lon":"83.530833333"},{"cityLabel":"Nangal Rajawatan","lat":"26.7486293","lon":"76.3272785"},{"cityLabel":"Hutbay","lat":"10.594","lon":"92.537"},{"cityLabel":"Bandol seoni","lat":"22.23","lon":"79.54"},{"cityLabel":"Lilong Chajing","lat":"24.707001","lon":"93.93026"},{"cityLabel":"Dongargaon, Agar Malwa","lat":"24.2474584","lon":"76.1682299"},{"cityLabel":"Lakshipur","lat":"23.476401","lon":"86.358962"},{"cityLabel":"Sudhowala","lat":"30.33305556","lon":"77.96083333"},{"cityLabel":"Khanpur","lat":"23.28","lon":"73.18"},{"cityLabel":"Bhaba Nagar","lat":"31.56527778","lon":"77.93472222"},{"cityLabel":"Thana Khurd","lat":"28.89","lon":"76.95"},{"cityLabel":"Semari","lat":"24.0555","lon":"73.8566"},{"cityLabel":"Kamal Pur Majra Burari","lat":"28.751666666","lon":"77.184166666"},{"cityLabel":"Warangal Tri-City","lat":"18.0167","lon":"79.6333"},{"cityLabel":"Chhanera","lat":"21.623","lon":"76.372"},{"cityLabel":"Khushalpur"},{"cityLabel":"Pirangut","lat":"18.5115","lon":"73.6801"},{"cityLabel":"Old Neredmet Village","lat":"17.471694","lon":"78.536444"},{"cityLabel":"Junnardeo","lat":"22.193","lon":"78.592"},{"cityLabel":"Shujalpur, Madhya Pradesh"},{"cityLabel":"Nithari Village","lat":"28.706206","lon":"77.055732"},{"cityLabel":"Shafipur","lat":"29.872777777","lon":"77.863888888"},{"cityLabel":"Sunhaira","lat":"29.890277777","lon":"77.830555555"},{"cityLabel":"Haldwani Talli","lat":"29.183611111","lon":"79.477777777"},{"cityLabel":"Mukhani","lat":"29.210833333","lon":"79.499166666"},{"cityLabel":"Fatehpur Range","lat":"29.303611111","lon":"79.059166666"},{"cityLabel":"Maholiya","lat":"28.897777777","lon":"79.867222222"},{"cityLabel":"Umru Khurd","lat":"28.953888888","lon":"79.944444444"},{"cityLabel":"Umlyngka","lat":"25.5725","lon":"91.840555555"},{"cityLabel":"Umroi","lat":"25.747222222","lon":"91.871666666"},{"cityLabel":"Chilla Saroda Khadar","lat":"28.581944444","lon":"77.302777777"},{"cityLabel":"Lad Pur","lat":"28.733888888","lon":"76.970277777"},{"cityLabel":"Mohammad Pur Majri","lat":"28.727777777","lon":"77.030277777"},{"cityLabel":"Rani Khera","lat":"28.701944444","lon":"76.996666666"},{"cityLabel":"Aali","lat":"28.520277777","lon":"77.293611111"},{"cityLabel":"Aya Nagar","lat":"28.470555555","lon":"77.126388888"},{"cityLabel":"Chattar Pur","lat":"28.495833333","lon":"77.168333333"},{"cityLabel":"Dera Mandi","lat":"28.436111111","lon":"77.173888888"},{"cityLabel":"Fateh Pur Beri","lat":"28.454722222","lon":"77.160555555"},{"cityLabel":"Saidabad","lat":"28.525833333","lon":"77.281388888"},{"cityLabel":"Kalwari","lat":"27.178055555","lon":"77.938888888"},{"cityLabel":"Mandsaur","lat":"24.068805555","lon":"75.076916666"},{"cityLabel":"Salt Lake","lat":"22.583888888","lon":"88.415277777"},{"cityLabel":"Fatehgarh, Jaisalmer"},{"cityLabel":"Sam, Jaisalmer","lat":"26.816666666","lon":"70.5"},{"cityLabel":"Jangipur, Dhuliyan and Farakka"}]